{
  "上海/DSC04076.JPG": {
    "CameraModel": "ZV-E10",
    "LensModel": "18-50mm F2.8 DC DN | Contemporary 021",
    "ExposureTime": "1/200",
    "FNumber": "3.2",
    "ISO": "400",
    "FocalLength": "42.4",
    "Latitude": null,
    "Longitude": null,
    "DateTime": "2024:04:04 18:03:45",
    "Location": "未知",
    "star": 3,
    "likes": 196
  },
  "上海/DSC04061.JPG": {
    "CameraModel": "ZV-E10",
    "LensModel": "18-50mm F2.8 DC DN | Contemporary 021",
    "ExposureTime": "1/200",
    "FNumber": "3.5",
    "ISO": "250",
    "FocalLength": "18.0",
    "Latitude": null,
    "Longitude": null,
    "DateTime": "2024:04:04 18:00:28",
    "Location": "未知",
    "star": 1.5
  },
  "上海/DSC04080.JPG": {
    "CameraModel": "ZV-E10",
    "LensModel": "18-50mm F2.8 DC DN | Contemporary 021",
    "ExposureTime": "1/200",
    "FNumber": "2.8",
    "ISO": "400",
    "FocalLength": "28.8",
    "Latitude": null,
    "Longitude": null,
    "DateTime": "2024:04:04 18:04:23",
    "Location": "未知",
    "star": 3.5,
    "likes": 172
  },
  "上海/DSC04056.JPG": {
    "CameraModel": "ZV-E10",
    "LensModel": "18-50mm F2.8 DC DN | Contemporary 021",
    "ExposureTime": "1/200",
    "FNumber": "2.8",
    "ISO": "250",
    "FocalLength": "23.7",
    "Latitude": null,
    "Longitude": null,
    "DateTime": "2024:04:04 17:59:54",
    "Location": "未知",
    "star": 4,
    "likes": 180
  },
  "青岛/IMG_1594.jpeg": {
    "CameraModel": "iPhone 11",
    "LensModel": "iPhone 11 back dual wide camera 1.54mm f/2.4",
    "ExposureTime": "1/25",
    "FNumber": "2.4",
    "ISO": "800",
    "FocalLength": "1.54",
    "Latitude": 36.05469444444444,
    "Longitude": 120.33989722222222,
    "DateTime": "2021:09:13 18:36:06",
    "Location": "未知",
    "star": 2.5
  },
  "青岛/IMG_1306.jpeg": {
    "CameraModel": "iPhone 11",
    "LensModel": "iPhone 11 back dual wide camera 1.54mm f/2.4",
    "ExposureTime": "1/888",
    "FNumber": "2.4",
    "ISO": "20",
    "FocalLength": "1.54",
    "Latitude": 36.676766666666666,
    "Longitude": 117.0223,
    "DateTime": "2021:07:10 09:20:23",
    "Location": "山东 · 历下区· 泉城路街道",
    "star": 3
  },
  "青岛/IMG_1100.jpeg": {
    "CameraModel": "iPhone 11",
    "LensModel": "iPhone 11 back dual wide camera 4.25mm f/1.8",
    "ExposureTime": "1/4608",
    "FNumber": "1.8",
    "ISO": "32",
    "FocalLength": "4.25",
    "Latitude": 36.122769444444444,
    "Longitude": 120.47925555555555,
    "DateTime": "2021:05:28 11:58:49",
    "Location": "山东 · 崂山区· 金家岭街道",
    "star": 2.5,
    "likes": 229
  },
  "青岛/IMG_1439.jpeg": {
    "CameraModel": "iPhone 11",
    "LensModel": "iPhone 11 back dual wide camera 4.25mm f/1.8",
    "ExposureTime": "1/5236",
    "FNumber": "1.8",
    "ISO": "32",
    "FocalLength": "4.25",
    "Latitude": 36.12190277777778,
    "Longitude": 120.47946944444445,
    "DateTime": "2021:08:07 12:40:08",
    "Location": "山东 · 崂山区· 金家岭街道",
    "star": 4
  },
  "青岛/IMG_1419.jpeg": {
    "CameraModel": "iPhone 11",
    "LensModel": "iPhone 11 back dual wide camera 4.25mm f/1.8",
    "ExposureTime": "1/4608",
    "FNumber": "1.8",
    "ISO": "32",
    "FocalLength": "4.25",
    "Latitude": 36.05506111111111,
    "Longitude": 120.33966111111111,
    "DateTime": "2021:08:05 12:06:56",
    "Location": "未知",
    "star": 2.5
  },
  "青岛/IMG_2461.JPG": {
    "CameraModel": "vivo X60",
    "LensModel": "Unknown",
    "ExposureTime": "1000/772797",
    "FNumber": "2.45",
    "ISO": "50",
    "FocalLength": "3.74",
    "Latitude": 0,
    "Longitude": 0,
    "DateTime": "2022:05:27 17:53:42",
    "Location": "未知",
    "star": 2
  },
  "青岛/IMG_1376.jpeg": {
    "CameraModel": "iPhone 11",
    "LensModel": "iPhone 11 back dual wide camera 1.54mm f/2.4",
    "ExposureTime": "1/225",
    "FNumber": "2.4",
    "ISO": "20",
    "FocalLength": "1.54",
    "Latitude": 36.05687222222222,
    "Longitude": 120.33724166666666,
    "DateTime": "2021:07:21 17:45:47",
    "Location": "山东 · 市南区· 八大关街道",
    "star": 2.5
  },
  "青岛/IMG_1434.jpeg": {
    "CameraModel": "iPhone 11",
    "LensModel": "iPhone 11 back dual wide camera 4.25mm f/1.8",
    "ExposureTime": "1/6757",
    "FNumber": "1.8",
    "ISO": "32",
    "FocalLength": "4.25",
    "Latitude": 36.056911111111106,
    "Longitude": 120.3359611111111,
    "DateTime": "2021:08:05 12:17:47",
    "Location": "山东 · 市南区· 八大关街道",
    "star": 2.5,
    "likes": 152
  },
  "青岛/IMG_1552.jpeg": {
    "CameraModel": "iPhone 11",
    "LensModel": "iPhone 11 back dual wide camera 4.25mm f/1.8",
    "ExposureTime": "1/25",
    "FNumber": "1.8",
    "ISO": "640",
    "FocalLength": "4.25",
    "Latitude": 36.052825,
    "Longitude": 120.34027222222221,
    "DateTime": "2021:09:01 18:49:40",
    "Location": "未知",
    "star": 4,
    "likes": 225
  },
  "山西/IMG_0762.jpeg": {
    "CameraModel": "iPhone 11",
    "LensModel": "iPhone 11 back dual wide camera 4.25mm f/1.8",
    "ExposureTime": "1/3610",
    "FNumber": "1.8",
    "ISO": "32",
    "FocalLength": "4.25",
    "Latitude": 37.90468333333333,
    "Longitude": 112.86393055555556,
    "DateTime": "2021:03:01 08:45:40",
    "Location": "山西 · 寿阳县· 平头镇",
    "star": 2.5
  },
  "北京/IMG_3208.jpeg": {
    "CameraModel": "iPhone 11",
    "LensModel": "iPhone 11 back dual wide camera 4.25mm f/1.8",
    "ExposureTime": "1/1866",
    "FNumber": "1.8",
    "ISO": "32",
    "FocalLength": "4.25",
    "Latitude": 39.92021944444444,
    "Longitude": 116.39043333333333,
    "DateTime": "2022:08:06 16:10:11",
    "Location": "北京 · 西城区· 西长安街街道",
    "star": 3.5,
    "likes": 291
  },
  "北京/IMG_3003.jpeg": {
    "CameraModel": "iPhone 11",
    "LensModel": "iPhone 11 back dual wide camera 1.54mm f/2.4",
    "ExposureTime": "1/1115",
    "FNumber": "2.4",
    "ISO": "20",
    "FocalLength": "1.54",
    "Latitude": 39.921475,
    "Longitude": 116.3853138888889,
    "DateTime": "2022:07:31 17:09:48",
    "Location": "北京 · 西城区· 西长安街街道",
    "star": 3.5,
    "likes": 137
  },
  "北京/IMG_3718.jpeg": {
    "CameraModel": "iPhone 11",
    "LensModel": "iPhone 11 back dual wide camera 4.25mm f/1.8",
    "ExposureTime": "1/100",
    "FNumber": "1.8",
    "ISO": "80",
    "FocalLength": "4.25",
    "Latitude": 39.90600277777778,
    "Longitude": 116.39504166666667,
    "DateTime": "2022:10:03 17:59:57",
    "Location": "北京 · 西城区· 西长安街街道",
    "star": 2.5
  },
  "北京/IMG_3734.jpeg": {
    "CameraModel": "iPhone 11",
    "LensModel": "iPhone 11 back dual wide camera 4.25mm f/1.8",
    "ExposureTime": "1/100",
    "FNumber": "1.8",
    "ISO": "125",
    "FocalLength": "4.25",
    "Latitude": 39.905991666666665,
    "Longitude": 116.39501111111112,
    "DateTime": "2022:10:03 18:03:34",
    "Location": "北京 · 西城区· 西长安街街道",
    "star": 4.5
  },
  "北京/IMG_2945.jpeg": {
    "CameraModel": "iPhone 11",
    "LensModel": "iPhone 11 back dual wide camera 4.25mm f/1.8",
    "ExposureTime": "1/2688",
    "FNumber": "1.8",
    "ISO": "32",
    "FocalLength": "4.25",
    "Latitude": 40.00449444444445,
    "Longitude": 116.3048861111111,
    "DateTime": "2022:07:30 14:41:52",
    "Location": "北京 · 海淀区· 青龙桥街道",
    "star": 3.5
  },
  "天津/beauty_1697337709482.JPEG": {
    "CameraModel": "Unknown",
    "LensModel": "Unknown",
    "ExposureTime": "Unknown",
    "FNumber": "Unknown",
    "ISO": "Unknown",
    "FocalLength": "Unknown",
    "Latitude": null,
    "Longitude": null,
    "DateTime": "未知",
    "Location": "未知"
  },
  "天津/IMG_1890.jpeg": {
    "CameraModel": "iPhone 14 Plus",
    "LensModel": "iPhone 14 Plus back dual wide camera 5.7mm f/1.5",
    "ExposureTime": "1/100",
    "FNumber": "1.5",
    "ISO": "100",
    "FocalLength": "5.7",
    "Latitude": 39.15154722222222,
    "Longitude": 117.18090833333333,
    "DateTime": "2023:10:14 22:04:32",
    "Location": "天津 · 红桥区· 三条石街道",
    "star": 3.5,
    "likes": 233
  },
  "上海/DSC04094.jpeg": {
    "CameraModel": "ZV-E10",
    "LensModel": "18-50mm F2.8 DC DN | Contemporary 021",
    "ExposureTime": "1/30",
    "FNumber": "2.8",
    "ISO": "800",
    "FocalLength": "21.9",
    "Latitude": 31.238522222222223,
    "Longitude": 121.48372222222223,
    "DateTime": "2024:04:04 18:40:43",
    "Location": "上海 · 黄浦区· 外滩街道",
    "star": 3
  },
  "北京/DSC00784.jpeg": {
    "CameraModel": "ZV-E10",
    "LensModel": "E PZ 16-50mm F3.5-5.6 OSS",
    "ExposureTime": "1/125",
    "FNumber": "9.0",
    "ISO": "100",
    "FocalLength": "16.0",
    "Latitude": 39.940597222222216,
    "Longitude": 116.38620277777778,
    "DateTime": "2023:11:18 13:38:45",
    "Location": "北京 · 西城区· 什刹海街道"
  },
  "北京/DSC00820.jpeg": {
    "CameraModel": "ZV-E10",
    "LensModel": "E PZ 16-50mm F3.5-5.6 OSS",
    "ExposureTime": "1/640",
    "FNumber": "5.6",
    "ISO": "100",
    "FocalLength": "37.0",
    "Latitude": 39.940597222222216,
    "Longitude": 116.38620277777778,
    "DateTime": "2023:11:18 13:47:04",
    "Location": "北京 · 西城区· 什刹海街道"
  },
  "北京/DSC00956.jpeg": {
    "CameraModel": "ZV-E10",
    "LensModel": "E PZ 16-50mm F3.5-5.6 OSS",
    "ExposureTime": "1/640",
    "FNumber": "5.6",
    "ISO": "100",
    "FocalLength": "39.0",
    "Latitude": 39.92248055555555,
    "Longitude": 116.39681944444445,
    "DateTime": "2023:11:18 15:02:04",
    "Location": "北京 · 东城区· 东华门街道"
  },
  "北京/DSC00977.jpeg": {
    "CameraModel": "ZV-E10",
    "LensModel": "E PZ 16-50mm F3.5-5.6 OSS",
    "ExposureTime": "1/400",
    "FNumber": "5.0",
    "ISO": "100",
    "FocalLength": "16.0",
    "Latitude": 39.92248055555555,
    "Longitude": 116.39681944444445,
    "DateTime": "2023:11:18 15:10:19",
    "Location": "北京 · 东城区· 东华门街道",
    "star": 4
  },
  "北京/IMG_5552.jpeg": {
    "CameraModel": "iPhone 14 Plus",
    "LensModel": "iPhone 14 Plus back dual wide camera 5.7mm f/1.5",
    "ExposureTime": "1/4831",
    "FNumber": "1.5",
    "ISO": "50",
    "FocalLength": "5.7",
    "Latitude": 41.005005555555556,
    "Longitude": 117.92937500000001,
    "DateTime": "2024:11:03 10:16:11",
    "Location": "河北 · 双桥区· 中华路街道",
    "star": 4
  },
  "天津/DSC00687.jpg": {
    "CameraModel": "Unknown",
    "LensModel": "Unknown",
    "ExposureTime": "Unknown",
    "FNumber": "Unknown",
    "ISO": "Unknown",
    "FocalLength": "Unknown",
    "Latitude": null,
    "Longitude": null,
    "DateTime": "未知",
    "Location": "未知",
    "star": 3
  },
  "山西/IMG_0763_home.jpeg": {
    "CameraModel": "iPhone 11",
    "LensModel": "iPhone 11 back dual wide camera 1.54mm f/2.4",
    "ExposureTime": "1/1653",
    "FNumber": "2.4",
    "ISO": "20",
    "FocalLength": "1.54",
    "Latitude": 37.9047,
    "Longitude": 112.86393055555556,
    "DateTime": "2021:03:01 08:45:46",
    "Location": "山西 · 寿阳县· 平头镇"
  },
  "山西/IMG_2348.jpeg": {
    "CameraModel": "iPhone 14 Plus",
    "LensModel": "iPhone 14 Plus back dual wide camera 5.7mm f/1.5",
    "ExposureTime": "1/125",
    "FNumber": "1.5",
    "ISO": "32",
    "FocalLength": "5.7",
    "Latitude": 37.70455277777778,
    "Longitude": 112.45079444444444,
    "DateTime": "2023:12:31 17:31:47",
    "Location": "山西 · 晋源区· 晋祠镇"
  },
  "张家口/DSC09508.jpeg": {
    "CameraModel": "ZV-E10",
    "LensModel": "18-50mm F2.8 DC DN | Contemporary 021",
    "ExposureTime": "1/320",
    "FNumber": "9.0",
    "ISO": "160",
    "FocalLength": "18.0",
    "Latitude": 40.98274722222222,
    "Longitude": 115.29497222222221,
    "DateTime": "2024:09:01 10:46:17",
    "Location": "河北 · 崇礼区· 西湾子街道"
  },
  "张家口/DSC09483.jpeg": {
    "CameraModel": "ZV-E10",
    "LensModel": "18-50mm F2.8 DC DN | Contemporary 021",
    "ExposureTime": "1/500",
    "FNumber": "6.3",
    "ISO": "160",
    "FocalLength": "18.0",
    "Latitude": 40.98274722222222,
    "Longitude": 115.29497222222221,
    "DateTime": "2024:09:01 10:40:51",
    "Location": "河北 · 崇礼区· 西湾子街道"
  },
  "张家口/DJI_20240901150143_0023_D.jpeg": {
    "CameraModel": "AC003",
    "LensModel": "Unknown",
    "ExposureTime": "1/1250",
    "FNumber": "2.8",
    "ISO": "120",
    "FocalLength": "3.33",
    "Latitude": 41.128483333333335,
    "Longitude": 114.99375,
    "DateTime": "2024:09:01 15:01:43",
    "Location": "河北 · 张北县· 小二台镇"
  },
  "张家口/DJI_20240901150139_0022_D.jpeg": {
    "CameraModel": "AC003",
    "LensModel": "Unknown",
    "ExposureTime": "1/3000",
    "FNumber": "2.8",
    "ISO": "240",
    "FocalLength": "3.33",
    "Latitude": 41.128483333333335,
    "Longitude": 114.99375,
    "DateTime": "2024:09:01 15:01:39",
    "Location": "河北 · 张北县· 小二台镇",
    "star": 4
  },
  "张家口/DSC09856.jpeg": {
    "CameraModel": "ZV-E10",
    "LensModel": "56mm F1.4 DC DN | Contemporary 018",
    "ExposureTime": "1/400",
    "FNumber": "11.0",
    "ISO": "160",
    "FocalLength": "56.0",
    "Latitude": 41.128483333333335,
    "Longitude": 114.99375,
    "DateTime": "2024:09:01 13:04:10",
    "Location": "河北 · 张北县· 小二台镇",
    "star": 3
  },
  "张家口/DSC09598.jpeg": {
    "CameraModel": "ZV-E10",
    "LensModel": "18-50mm F2.8 DC DN | Contemporary 021",
    "ExposureTime": "1/1250",
    "FNumber": "5.0",
    "ISO": "250",
    "FocalLength": "18.0",
    "Latitude": 40.98274722222222,
    "Longitude": 115.29497222222221,
    "DateTime": "2024:09:01 11:17:09",
    "Location": "河北 · 崇礼区· 西湾子街道",
    "star": 4
  },
  "张家口/DSC09513.jpeg": {
    "CameraModel": "ZV-E10",
    "LensModel": "18-50mm F2.8 DC DN | Contemporary 021",
    "ExposureTime": "1/320",
    "FNumber": "9.0",
    "ISO": "160",
    "FocalLength": "50.0",
    "Latitude": 40.98274722222222,
    "Longitude": 115.29497222222221,
    "DateTime": "2024:09:01 10:49:25",
    "Location": "河北 · 崇礼区· 西湾子街道"
  },
  "张家口/DSC09914.jpeg": {
    "CameraModel": "ZV-E10",
    "LensModel": "18-50mm F2.8 DC DN | Contemporary 021",
    "ExposureTime": "1/320",
    "FNumber": "13.0",
    "ISO": "160",
    "FocalLength": "22.5",
    "Latitude": 41.128483333333335,
    "Longitude": 114.99375,
    "DateTime": "2024:09:01 13:13:51",
    "Location": "河北 · 张北县· 小二台镇",
    "star": 3
  },
  "张家口/DSC09858.jpeg": {
    "CameraModel": "ZV-E10",
    "LensModel": "56mm F1.4 DC DN | Contemporary 018",
    "ExposureTime": "1/320",
    "FNumber": "11.0",
    "ISO": "160",
    "FocalLength": "56.0",
    "Latitude": 41.128483333333335,
    "Longitude": 114.99375,
    "DateTime": "2024:09:01 13:04:47",
    "Location": "河北 · 张北县· 小二台镇"
  },
  "苏杭/DSC05163.jpeg": {
    "CameraModel": "ZV-E10",
    "LensModel": "18-50mm F2.8 DC DN | Contemporary 021",
    "ExposureTime": "1/1250",
    "FNumber": "5.6",
    "ISO": "100",
    "FocalLength": "27.4",
    "Latitude": 31.31065277777778,
    "Longitude": 120.6346,
    "DateTime": "2024:04:05 13:59:31",
    "Location": "江苏 · 姑苏区· 平江街道",
    "star": 3
  },
  "苏杭/IMG_3668.jpeg": {
    "CameraModel": "ZV-E10",
    "LensModel": "18-50mm F2.8 DC DN | Contemporary 021",
    "ExposureTime": "1/800",
    "FNumber": "3.2",
    "ISO": "80",
    "FocalLength": "19.0",
    "Latitude": 31.299758333333337,
    "Longitude": 120.58529444444444,
    "DateTime": "2024:04:06 08:50:44",
    "Location": "江苏 · 姑苏区· 金阊街道"
  },
  "苏杭/DSC06701.jpeg": {
    "CameraModel": "ZV-E10",
    "LensModel": "18-50mm F2.8 DC DN | Contemporary 021",
    "ExposureTime": "1/160",
    "FNumber": "2.8",
    "ISO": "100",
    "FocalLength": "50.0",
    "Latitude": 30.246088888888888,
    "Longitude": 120.15978055555556,
    "DateTime": "2024:04:07 13:58:09",
    "Location": "浙江 · 上城区· 清波街道"
  },
  "苏杭/DSC05171.jpeg": {
    "CameraModel": "ZV-E10",
    "LensModel": "18-50mm F2.8 DC DN | Contemporary 021",
    "ExposureTime": "1/320",
    "FNumber": "9.0",
    "ISO": "100",
    "FocalLength": "29.9",
    "Latitude": 31.326219444444444,
    "Longitude": 120.62441388888888,
    "DateTime": "2024:04:05 14:08:16",
    "Location": "江苏 · 姑苏区· 平江街道"
  },
  "苏杭/IMG_3788.jpeg": {
    "CameraModel": "ZV-E10",
    "LensModel": "56mm F1.4 DC DN | Contemporary 018",
    "ExposureTime": "1/320",
    "FNumber": "2.2",
    "ISO": "100",
    "FocalLength": "56.0",
    "Latitude": 30.246088888888888,
    "Longitude": 120.15978055555556,
    "DateTime": "2024:04:09 12:48:31",
    "Location": "浙江 · 上城区· 清波街道",
    "star": 3
  },
  "苏杭/IMG_3789.jpeg": {
    "CameraModel": "ZV-E10",
    "LensModel": "18-50mm F2.8 DC DN | Contemporary 021",
    "ExposureTime": "1/500",
    "FNumber": "3.5",
    "ISO": "100",
    "FocalLength": "31.1",
    "Latitude": 30.246088888888888,
    "Longitude": 120.15978055555556,
    "DateTime": "2024:04:09 12:50:22",
    "Location": "浙江 · 上城区· 清波街道"
  },
  "苏杭/IMG_3680.jpeg": {
    "CameraModel": "ZV-E10",
    "LensModel": "18-50mm F2.8 DC DN | Contemporary 021",
    "ExposureTime": "1/1600",
    "FNumber": "2.8",
    "ISO": "100",
    "FocalLength": "50.0",
    "Latitude": 31.28936666666667,
    "Longitude": 120.54805555555555,
    "DateTime": "2024:04:06 13:20:20",
    "Location": "江苏 · 虎丘区· 狮山街道",
    "star": 4
  },
  "苏杭/DSC06564.jpeg": {
    "CameraModel": "ZV-E10",
    "LensModel": "56mm F1.4 DC DN | Contemporary 018",
    "ExposureTime": "1/2000",
    "FNumber": "1.4",
    "ISO": "100",
    "FocalLength": "56.0",
    "Latitude": 30.246088888888888,
    "Longitude": 120.15978055555556,
    "DateTime": "2024:04:07 13:14:05",
    "Location": "浙江 · 上城区· 清波街道",
    "star": 3
  },
  "苏杭/IMG_3682.jpeg": {
    "CameraModel": "ZV-E10",
    "LensModel": "18-50mm F2.8 DC DN | Contemporary 021",
    "ExposureTime": "1/1600",
    "FNumber": "2.8",
    "ISO": "100",
    "FocalLength": "50.0",
    "Latitude": 31.28936666666667,
    "Longitude": 120.54805555555555,
    "DateTime": "2024:04:06 13:21:04",
    "Location": "江苏 · 虎丘区· 狮山街道",
    "star": 4
  },
  "苏杭/IMG_3681.jpeg": {
    "CameraModel": "ZV-E10",
    "LensModel": "18-50mm F2.8 DC DN | Contemporary 021",
    "ExposureTime": "1/200",
    "FNumber": "10.0",
    "ISO": "100",
    "FocalLength": "27.8",
    "Latitude": 31.28936666666667,
    "Longitude": 120.54805555555555,
    "DateTime": "2024:04:06 13:20:45",
    "Location": "江苏 · 虎丘区· 狮山街道"
  },
  "厦门/9afa0885dc2c9bcd33ab811cf3fd60b5.jpeg": {
    "CameraModel": "Unknown",
    "LensModel": "Unknown",
    "ExposureTime": "1/100",
    "FNumber": "2.0",
    "ISO": "80",
    "FocalLength": "5.75",
    "Latitude": 24.44261388888889,
    "Longitude": 118.1619,
    "DateTime": "2024:12:15 08:10:05",
    "Location": "福建 · 思明区· 滨海街道",
    "star": 5
  },
  "厦门/403ba2ae5a94f21b429fb18f712be2d1.jpeg": {
    "CameraModel": "Unknown",
    "LensModel": "Unknown",
    "ExposureTime": "249/100000",
    "FNumber": "3.4",
    "ISO": "50",
    "FocalLength": "14.45",
    "Latitude": 24.44261388888889,
    "Longitude": 118.1619,
    "DateTime": "2024:12:15 08:09:58",
    "Location": "福建 · 思明区· 滨海街道",
    "star": 4
  },
  "厦门/bb0032272a28ecf06fba9fdf241a657a.jpeg": {
    "CameraModel": "Unknown",
    "LensModel": "Unknown",
    "ExposureTime": "1/50",
    "FNumber": "2.0",
    "ISO": "160",
    "FocalLength": "5.75",
    "Latitude": 24.44261388888889,
    "Longitude": 118.1619,
    "DateTime": "2024:12:15 08:10:02",
    "Location": "福建 · 思明区· 滨海街道",
    "star": 5
  },
  "厦门/c07e7bb90a8da0a33cc7ee33860080d9.jpeg": {
    "CameraModel": "Unknown",
    "LensModel": "Unknown",
    "ExposureTime": "1/100",
    "FNumber": "2.0",
    "ISO": "125",
    "FocalLength": "5.75",
    "Latitude": 24.44261388888889,
    "Longitude": 118.1619,
    "DateTime": "2024:12:15 08:10:07",
    "Location": "福建 · 思明区· 滨海街道"
  },
  "厦门/IMG_5825.jpeg": {
    "CameraModel": "iPhone 14 Plus",
    "LensModel": "iPhone 14 Plus back dual wide camera 5.7mm f/1.5",
    "ExposureTime": "1/60",
    "FNumber": "1.5",
    "ISO": "250",
    "FocalLength": "5.7",
    "Latitude": 26.056175,
    "Longitude": 119.3030611111111,
    "DateTime": "2024:12:13 17:19:04",
    "Location": "福建 · 台江区· 洋中街道",
    "star": 4
  },
  "厦门/DSC01084.jpeg": {
    "CameraModel": "ZV-E10",
    "LensModel": "18-50mm F2.8 DC DN | Contemporary 021",
    "ExposureTime": "1/160",
    "FNumber": "14.0",
    "ISO": "160",
    "FocalLength": "38.4",
    "Latitude": 24.56372222222222,
    "Longitude": 118.089475,
    "DateTime": "2024:12:15 12:35:17",
    "Location": "福建 · 集美区· 集美街道",
    "star": 3
  },
  "厦门/IMG_5813.jpeg": {
    "CameraModel": "iPhone 14 Plus",
    "LensModel": "iPhone 14 Plus back dual wide camera 1.54mm f/2.4",
    "ExposureTime": "1/289",
    "FNumber": "2.4",
    "ISO": "32",
    "FocalLength": "1.54",
    "Latitude": 26.084477777777778,
    "Longitude": 119.29231388888888,
    "DateTime": "2024:12:13 12:29:53",
    "Location": "福建 · 鼓楼区· 南街街道",
    "star": 3
  },
  "厦门/DSC01043.jpeg": {
    "CameraModel": "ZV-E10",
    "LensModel": "56mm F1.4 DC DN | Contemporary 018",
    "ExposureTime": "1/125",
    "FNumber": "1.4",
    "ISO": "160",
    "FocalLength": "56.0",
    "Latitude": 24.44261388888889,
    "Longitude": 118.1619,
    "DateTime": "2024:12:15 06:27:08",
    "Location": "福建 · 思明区· 滨海街道",
    "star": 3
  },
  "厦门/DSC01106.jpeg": {
    "CameraModel": "ZV-E10",
    "LensModel": "18-50mm F2.8 DC DN | Contemporary 021",
    "ExposureTime": "1/1000",
    "FNumber": "16.0",
    "ISO": "640",
    "FocalLength": "24.2",
    "Latitude": 24.56372222222222,
    "Longitude": 118.089475,
    "DateTime": "2024:12:15 12:46:11",
    "Location": "福建 · 集美区· 集美街道",
    "star": 3
  }
}